[{"id":"1507","province_id":"15","name":"KABUPATEN TANJUNG JABUNG BARAT","lat":"-1.2332122","lng":"103.7984428"},{"id":"1508","province_id":"15","name":"KABUPATEN TEBO","lat":"-1.2592999","lng":"102.3463875"},{"id":"1506","province_id":"15","name":"KABUPATEN TANJUNG JABUNG TIMUR","lat":"-1.3291599","lng":"103.89973"},{"id":"1505","province_id":"15","name":"KABUPATEN MUARO JAMBI","lat":"-1.596672","lng":"103.615799"},{"id":"1571","province_id":"15","name":"KOTA JAMBI","lat":"-1.596672","lng":"103.615799"},{"id":"1509","province_id":"15","name":"KABUPATEN BUNGO","lat":"-1.6401338","lng":"101.8891721"},{"id":"1501","province_id":"15","name":"KABUPATEN KERINCI","lat":"-1.697","lng":"101.264"},{"id":"1504","province_id":"15","name":"KABUPATEN BATANG HARI","lat":"-1.7083922","lng":"103.0817903"},{"id":"1572","province_id":"15","name":"KOTA SUNGAI PENUH","lat":"-2.06314","lng":"101.387199"},{"id":"1502","province_id":"15","name":"KABUPATEN MERANGIN","lat":"-2.1752789","lng":"101.9804613"},{"id":"1503","province_id":"15","name":"KABUPATEN SAROLANGUN","lat":"-2.2654937","lng":"102.6905326"}]