[{"id":"1811","province_id":"18","name":"KABUPATEN MESUJI","lat":"-4.0044783","lng":"105.3131185"},{"id":"1808","province_id":"18","name":"KABUPATEN TULANGBAWANG","lat":"-4.3176576","lng":"105.5005483"},{"id":"1807","province_id":"18","name":"KABUPATEN WAY KANAN","lat":"-4.4963689","lng":"104.5655273"},{"id":"1805","province_id":"18","name":"KABUPATEN LAMPUNG TENGAH","lat":"-4.8008086","lng":"105.3131185"},{"id":"1806","province_id":"18","name":"KABUPATEN LAMPUNG UTARA","lat":"-4.8133905","lng":"104.7520939"},{"id":"1804","province_id":"18","name":"KABUPATEN LAMPUNG TIMUR","lat":"-5.1134995","lng":"105.6881788"},{"id":"1872","province_id":"18","name":"KOTA METRO","lat":"-5.1166667","lng":"105.3"},{"id":"1801","province_id":"18","name":"KABUPATEN LAMPUNG BARAT","lat":"-5.1490396","lng":"104.1930918"},{"id":"1802","province_id":"18","name":"KABUPATEN TANGGAMUS","lat":"-5.3027489","lng":"104.5655273"},{"id":"1810","province_id":"18","name":"KABUPATEN PRINGSEWU","lat":"-5.3539884","lng":"104.9622498"},{"id":"1871","province_id":"18","name":"KOTA BANDAR LAMPUNG","lat":"-5.45","lng":"105.2666667"},{"id":"1809","province_id":"18","name":"KABUPATEN PESAWARAN","lat":"-5.493245","lng":"105.0791228"},{"id":"1803","province_id":"18","name":"KABUPATEN LAMPUNG SELATAN","lat":"-5.5622614","lng":"105.5474373"}]