[{"id":"2104","province_id":"21","name":"KABUPATEN LINGGA","lat":"-0.1627686","lng":"104.6354631"},{"id":"2172","province_id":"21","name":"KOTA TANJUNG PINANG","lat":"0.9179205","lng":"104.446464"},{"id":"2101","province_id":"21","name":"KABUPATEN KARIMUN","lat":"1.05","lng":"103.3666667"},{"id":"2102","province_id":"21","name":"KABUPATEN BINTAN","lat":"1.0619173","lng":"104.5189214"},{"id":"2103","province_id":"21","name":"KABUPATEN NATUNA","lat":"3.9329945","lng":"108.1812242"}]