[{"id":"6109","province_id":"61","name":"KABUPATEN SEKADAU","lat":"0.015637","lng":"110.888603"},{"id":"6171","province_id":"61","name":"KOTA PONTIANAK","lat":"-0.022523","lng":"109.330307"},{"id":"6107","province_id":"61","name":"KABUPATEN SINTANG","lat":"0.080238","lng":"111.495499"},{"id":"6105","province_id":"61","name":"KABUPATEN SANGGAU","lat":"0.119275","lng":"110.597298"},{"id":"6112","province_id":"61","name":"KABUPATEN KUBU RAYA","lat":"-0.3533938","lng":"109.4735066"},{"id":"6103","province_id":"61","name":"KABUPATEN LANDAK","lat":"0.4237287","lng":"109.7591675"},{"id":"6110","province_id":"61","name":"KABUPATEN MELAWI","lat":"-0.7000681","lng":"111.6660725"},{"id":"6108","province_id":"61","name":"KABUPATEN KAPUAS HULU","lat":"-0.7931004","lng":"113.9060624"},{"id":"6102","province_id":"61","name":"KABUPATEN BENGKAYANG","lat":"0.8209729","lng":"109.477699"},{"id":"6172","province_id":"61","name":"KOTA SINGKAWANG","lat":"0.908795","lng":"108.984596"},{"id":"6111","province_id":"61","name":"KABUPATEN KAYONG UTARA","lat":"-0.9225877","lng":"110.0449662"},{"id":"6101","province_id":"61","name":"KABUPATEN SAMBAS","lat":"1.361328","lng":"109.309998"},{"id":"6106","province_id":"61","name":"KABUPATEN KETAPANG","lat":"-1.859098","lng":"109.971901"}]