[{"id":"6309","province_id":"63","name":"KABUPATEN TABALONG","lat":"-1.864302","lng":"115.5681084"},{"id":"6311","province_id":"63","name":"KABUPATEN BALANGAN","lat":"-2.3260425","lng":"115.6154732"},{"id":"6308","province_id":"63","name":"KABUPATEN HULU SUNGAI UTARA","lat":"-2.4421225","lng":"115.188916"},{"id":"6307","province_id":"63","name":"KABUPATEN HULU SUNGAI TENGAH","lat":"-2.6153162","lng":"115.5207358"},{"id":"6306","province_id":"63","name":"KABUPATEN HULU SUNGAI SELATAN","lat":"-2.7662681","lng":"115.2363408"},{"id":"6305","province_id":"63","name":"KABUPATEN TAPIN","lat":"-2.9160746","lng":"115.0465991"},{"id":"6304","province_id":"63","name":"KABUPATEN BARITO KUALA","lat":"-3.0714738","lng":"114.6667939"},{"id":"6371","province_id":"63","name":"KOTA BANJARMASIN","lat":"-3.328499","lng":"114.589203"},{"id":"6310","province_id":"63","name":"KABUPATEN TANAH BUMBU","lat":"-3.4512244","lng":"115.5681084"},{"id":"6372","province_id":"63","name":"KOTA BANJAR BARU","lat":"-3.4666667","lng":"114.75"},{"id":"6301","province_id":"63","name":"KABUPATEN TANAH LAUT","lat":"-3.7694047","lng":"114.8092691"},{"id":"6302","province_id":"63","name":"KABUPATEN KOTA BARU","lat":"-6.332973","lng":"106.807915"},{"id":"6303","province_id":"63","name":"KABUPATEN BANJAR","lat":"-7.3666667","lng":"108.5333333"}]