[{"id":"7101","province_id":"71","name":"KABUPATEN BOLAANG MONGONDOW","lat":"0.6870994","lng":"124.0641419"},{"id":"7174","province_id":"71","name":"KOTA KOTAMOBAGU","lat":"0.7333333","lng":"124.3166667"},{"id":"7107","province_id":"71","name":"KABUPATEN BOLAANG MONGONDOW UTARA","lat":"0.818691","lng":"123.5280072"},{"id":"7102","province_id":"71","name":"KABUPATEN MINAHASA","lat":"1","lng":"124.5833333"},{"id":"7109","province_id":"71","name":"KABUPATEN MINAHASA TENGGARA","lat":"1.0278551","lng":"124.7298765"},{"id":"7105","province_id":"71","name":"KABUPATEN MINAHASA SELATAN","lat":"1.0946773","lng":"124.4641848"},{"id":"7173","province_id":"71","name":"KOTA TOMOHON","lat":"1.3234131","lng":"124.8384504"},{"id":"7172","province_id":"71","name":"KOTA BITUNG","lat":"1.4553529","lng":"125.204697"},{"id":"7171","province_id":"71","name":"KOTA MANADO","lat":"1.4917014","lng":"124.842843"},{"id":"7106","province_id":"71","name":"KABUPATEN MINAHASA UTARA","lat":"1.5327973","lng":"124.994751"},{"id":"7108","province_id":"71","name":"KABUPATEN SIAU TAGULANDANG BIARO","lat":"2.345964","lng":"125.4124355"},{"id":"7103","province_id":"71","name":"KABUPATEN KEPULAUAN SANGIHE","lat":"3.5303212","lng":"125.5438967"},{"id":"7104","province_id":"71","name":"KABUPATEN KEPULAUAN TALAUD","lat":"4.092","lng":"126.768"}]