[{"nid":"1328","parent_nid":"11","name":"Kabupaten Aceh Selatan","serial":"1101","type":"2","lat":"3.3115056","lng":"97.3516558","status":"1"},{"nid":"1327","parent_nid":"11","name":"Kabupaten Aceh Singkil","serial":"1102","type":"2","lat":"2.3589459","lng":"97.87216","status":"1"},{"nid":"1329","parent_nid":"11","name":"Kabupaten Aceh Tenggara","serial":"1102","type":"2","lat":"3.3088666","lng":"97.6982272","status":"1"},{"nid":"1330","parent_nid":"11","name":"Kabupaten Aceh Timur","serial":"1103","type":"2","lat":"5.255443","lng":"95.9885456","status":"1"},{"nid":"1331","parent_nid":"11","name":"Kabupaten Aceh Tengah","serial":"1104","type":"2","lat":"4.4482641","lng":"96.8350999","status":"1"},{"nid":"1332","parent_nid":"11","name":"Kabupaten Aceh Barat","serial":"1105","type":"2","lat":"4.4542745","lng":"96.1526985","status":"1"},{"nid":"1333","parent_nid":"11","name":"Kabupaten Aceh Besar","serial":"1106","type":"2","lat":"5.4529168","lng":"95.4777811","status":"1"},{"nid":"1334","parent_nid":"11","name":"Kabupaten Pidie","serial":"1107","type":"2","lat":"5.0742659","lng":"95.940971","status":"1"},{"nid":"1336","parent_nid":"11","name":"Kabupaten Aceh Utara","serial":"1108","type":"2","lat":"4.9786331","lng":"97.2221421","status":"1"},{"nid":"1326","parent_nid":"11","name":"Kabupaten Simeulue","serial":"1109","type":"2","lat":"2.583333","lng":"96.083333","status":"1"},{"nid":"1335","parent_nid":"11","name":"Kabupaten Bireuen","serial":"1111","type":"2","lat":"5.18254","lng":"96.89005","status":"1"},{"nid":"1337","parent_nid":"11","name":"Kabupaten Aceh Barat Daya","serial":"1112","type":"2","lat":"3.0512643","lng":"97.3368031","status":"1"},{"nid":"1338","parent_nid":"11","name":"Kabupaten Gayo Lues","serial":"1113","type":"2","lat":"3.955165","lng":"97.3516558","status":"1"},{"nid":"1341","parent_nid":"11","name":"Kabupaten Aceh Jaya","serial":"1114","type":"2","lat":"4.7873684","lng":"95.6457951","status":"1"},{"nid":"1340","parent_nid":"11","name":"Kabupaten Nagan Raya","serial":"1115","type":"2","lat":"4.1248406","lng":"96.4929797","status":"1"},{"nid":"1339","parent_nid":"11","name":"Kabupaten Aceh Tamiang","serial":"1116","type":"2","lat":"4.2328871","lng":"98.0028892","status":"1"},{"nid":"1342","parent_nid":"11","name":"Kabupaten Bener Meriah","serial":"1117","type":"2","lat":"4.7748348","lng":"97.0068393","status":"1"},{"nid":"1343","parent_nid":"11","name":"Kabupaten Pidie Jaya","serial":"1118","type":"2","lat":"5.1548063","lng":"96.195132","status":"1"},{"nid":"1344","parent_nid":"11","name":"Kota Banda Aceh","serial":"1171","type":"2","lat":"5.55","lng":"95.3166667","status":"1"},{"nid":"1345","parent_nid":"11","name":"Kota Sabang","serial":"1172","type":"2","lat":"5.8946929","lng":"95.3192982","status":"1"},{"nid":"1347","parent_nid":"11","name":"Kota Lhokseumawe","serial":"1173","type":"2","lat":"5.1880556","lng":"97.1402778","status":"1"},{"nid":"1346","parent_nid":"11","name":"Kota Langsa","serial":"1174","type":"2","lat":"4.48","lng":"97.9633333","status":"1"},{"nid":"1348","parent_nid":"11","name":"Kota Subulussalam","serial":"1175","type":"2","lat":"2.6449927","lng":"98.0165205","status":"1"}]