[{"nid":"1378","parent_nid":"13","name":"Kabupaten Pesisir Selatan","serial":"1301","type":"2","lat":"-1.7223147","lng":"100.8903099","status":"1"},{"nid":"1379","parent_nid":"13","name":"Kabupaten Solok","serial":"1302","type":"2","lat":"-0.803027","lng":"100.644402","status":"1"},{"nid":"1380","parent_nid":"13","name":"Kabupaten Sijunjung","serial":"1303","type":"2","lat":"-0.6881586","lng":"100.997658","status":"1"},{"nid":"1381","parent_nid":"13","name":"Kabupaten Tanah Datar","serial":"1304","type":"2","lat":"-0.4797043","lng":"100.5746224","status":"1"},{"nid":"1382","parent_nid":"13","name":"Kabupaten Padang Pariaman","serial":"1305","type":"2","lat":"-0.5546757","lng":"100.2151578","status":"1"},{"nid":"1383","parent_nid":"13","name":"Kabupaten Agam","serial":"1306","type":"2","lat":"-0.2209392","lng":"100.1703257","status":"1"},{"nid":"1384","parent_nid":"13","name":"Kabupaten Lima Puluh Kota","serial":"1307","type":"2","lat":"3.168216","lng":"99.4187929","status":"1"},{"nid":"1385","parent_nid":"13","name":"Kabupaten Pasaman","serial":"1308","type":"2","lat":"0.1288752","lng":"99.7901781","status":"1"},{"nid":"1377","parent_nid":"13","name":"Kabupaten Kepulauan Mentawai","serial":"1309","type":"2","lat":"-1.426001","lng":"98.9245343","status":"1"},{"nid":"1387","parent_nid":"13","name":"Kabupaten Dharmas Raya","serial":"1310","type":"2","lat":"-1.1120568","lng":"101.6157773","status":"1"},{"nid":"1386","parent_nid":"13","name":"Kabupaten Solok Selatan","serial":"1311","type":"2","lat":"-1.4157329","lng":"101.2523792","status":"1"},{"nid":"1388","parent_nid":"13","name":"Kabupaten Pasaman Barat","serial":"1312","type":"2","lat":"0.2213005","lng":"99.634135","status":"1"},{"nid":"1389","parent_nid":"13","name":"Kota Padang","serial":"1371","type":"2","lat":"-0.95","lng":"100.3530556","status":"1"},{"nid":"1390","parent_nid":"13","name":"Kota Solok","serial":"1372","type":"2","lat":"-0.803027","lng":"100.644402","status":"1"},{"nid":"1391","parent_nid":"13","name":"Kota Sawah Lunto","serial":"1373","type":"2","lat":"-0.6810286","lng":"100.7763604","status":"1"},{"nid":"1392","parent_nid":"13","name":"Kota Padang Panjang","serial":"1374","type":"2","lat":"-0.470679","lng":"100.4059456","status":"1"},{"nid":"1393","parent_nid":"13","name":"Kota Bukittinggi","serial":"1375","type":"2","lat":"-0.3055556","lng":"100.3691667","status":"1"},{"nid":"1394","parent_nid":"13","name":"Kota Payakumbuh","serial":"1376","type":"2","lat":"-0.22887","lng":"100.632301","status":"1"},{"nid":"1395","parent_nid":"13","name":"Kota Pariaman","serial":"1377","type":"2","lat":"-0.6264389","lng":"100.1179574","status":"1"}]