[{"id":"1309","province_id":"13","name":"KABUPATEN PASAMAN","lat":"0.1288752","lng":"99.7901781"},{"id":"1307","province_id":"13","name":"KABUPATEN AGAM","lat":"-0.2209392","lng":"100.1703257"},{"id":"1312","province_id":"13","name":"KABUPATEN PASAMAN BARAT","lat":"0.2213005","lng":"99.634135"},{"id":"1376","province_id":"13","name":"KOTA PAYAKUMBUH","lat":"-0.22887","lng":"100.632301"},{"id":"1375","province_id":"13","name":"KOTA BUKITTINGGI","lat":"-0.3055556","lng":"100.3691667"},{"id":"1374","province_id":"13","name":"KOTA PADANG PANJANG","lat":"-0.470679","lng":"100.4059456"},{"id":"1305","province_id":"13","name":"KABUPATEN TANAH DATAR","lat":"-0.4797043","lng":"100.5746224"},{"id":"1306","province_id":"13","name":"KABUPATEN PADANG PARIAMAN","lat":"-0.5546757","lng":"100.2151578"},{"id":"1377","province_id":"13","name":"KOTA PARIAMAN","lat":"-0.6264389","lng":"100.1179574"},{"id":"1373","province_id":"13","name":"KOTA SAWAH LUNTO","lat":"-0.6810286","lng":"100.7763604"},{"id":"1304","province_id":"13","name":"KABUPATEN SIJUNJUNG","lat":"-0.6881586","lng":"100.997658"},{"id":"1303","province_id":"13","name":"KABUPATEN SOLOK","lat":"-0.803027","lng":"100.644402"},{"id":"1372","province_id":"13","name":"KOTA SOLOK","lat":"-0.803027","lng":"100.644402"},{"id":"1371","province_id":"13","name":"KOTA PADANG","lat":"-0.95","lng":"100.3530556"},{"id":"1310","province_id":"13","name":"KABUPATEN SOLOK SELATAN","lat":"-1.4157329","lng":"101.2523792"},{"id":"1301","province_id":"13","name":"KABUPATEN KEPULAUAN MENTAWAI","lat":"-1.426001","lng":"98.9245343"},{"id":"1302","province_id":"13","name":"KABUPATEN PESISIR SELATAN","lat":"-1.7223147","lng":"100.8903099"},{"id":"1308","province_id":"13","name":"KABUPATEN LIMA PULUH KOTA","lat":"3.168216","lng":"99.4187929"}]