[{"nid":"1417","parent_nid":"16","name":"Kabupaten Ogan Komering Ulu","serial":"1601","type":"2","lat":"-4.0283486","lng":"104.0072348","status":"1"},{"nid":"1418","parent_nid":"16","name":"Kabupaten Ogan Komering Ilir","serial":"1602","type":"2","lat":"-3.4559744","lng":"105.2194808","status":"1"},{"nid":"1419","parent_nid":"16","name":"Kabupaten Muara Enim","serial":"1603","type":"2","lat":"-3.651581","lng":"103.770798","status":"1"},{"nid":"1420","parent_nid":"16","name":"Kabupaten Lahat","serial":"1604","type":"2","lat":"-3.7863889","lng":"103.5427778","status":"1"},{"nid":"1421","parent_nid":"16","name":"Kabupaten Musi Rawas","serial":"1605","type":"2","lat":"-2.8625305","lng":"102.989615","status":"1"},{"nid":"1422","parent_nid":"16","name":"Kabupaten Musi Banyuasin","serial":"1606","type":"2","lat":"-2.5442029","lng":"103.7289167","status":"1"},{"nid":"1423","parent_nid":"16","name":"Kabupaten Banyu Asin","serial":"1607","type":"2","lat":"-2.6095639","lng":"104.7520939","status":"1"},{"nid":"1425","parent_nid":"16","name":"Kabupaten Ogan Komering Ulu Timur","serial":"1608","type":"2","lat":"-3.8567934","lng":"104.7520939","status":"1"},{"nid":"1424","parent_nid":"16","name":"Kabupaten Ogan Komering Ulu Selatan","serial":"1609","type":"2","lat":"-4.6681951","lng":"104.0072348","status":"1"},{"nid":"1426","parent_nid":"16","name":"Kabupaten Ogan Ilir","serial":"1610","type":"2","lat":"-3.426544","lng":"104.6121475","status":"1"},{"nid":"1427","parent_nid":"16","name":"Kabupaten Empat Lawang","serial":"1611","type":"2","lat":"-3.7286029","lng":"102.8975098","status":"1"},{"nid":"1428","parent_nid":"16","name":"Kota Palembang","serial":"1671","type":"2","lat":"-2.9911083","lng":"104.7567333","status":"1"},{"nid":"1430","parent_nid":"16","name":"Kota Pagar Alam","serial":"1672","type":"2","lat":"-4.03767","lng":"103.265297","status":"1"},{"nid":"1431","parent_nid":"16","name":"Kota Lubuklinggau","serial":"1673","type":"2","lat":"-3.2966667","lng":"102.8616667","status":"1"},{"nid":"1429","parent_nid":"16","name":"Kota Prabumulih","serial":"1674","type":"2","lat":"-3.440956","lng":"104.235397","status":"1"}]