[{"id":"1606","province_id":"16","name":"KABUPATEN MUSI BANYUASIN","lat":"-2.5442029","lng":"103.7289167"},{"id":"1607","province_id":"16","name":"KABUPATEN BANYU ASIN","lat":"-2.6095639","lng":"104.7520939"},{"id":"1605","province_id":"16","name":"KABUPATEN MUSI RAWAS","lat":"-2.8625305","lng":"102.989615"},{"id":"1671","province_id":"16","name":"KOTA PALEMBANG","lat":"-2.9911083","lng":"104.7567333"},{"id":"1674","province_id":"16","name":"KOTA LUBUKLINGGAU","lat":"-3.2966667","lng":"102.8616667"},{"id":"1610","province_id":"16","name":"KABUPATEN OGAN ILIR","lat":"-3.426544","lng":"104.6121475"},{"id":"1672","province_id":"16","name":"KOTA PRABUMULIH","lat":"-3.440956","lng":"104.235397"},{"id":"1602","province_id":"16","name":"KABUPATEN OGAN KOMERING ILIR","lat":"-3.4559744","lng":"105.2194808"},{"id":"1603","province_id":"16","name":"KABUPATEN MUARA ENIM","lat":"-3.651581","lng":"103.770798"},{"id":"1611","province_id":"16","name":"KABUPATEN EMPAT LAWANG","lat":"-3.7286029","lng":"102.8975098"},{"id":"1604","province_id":"16","name":"KABUPATEN LAHAT","lat":"-3.7863889","lng":"103.5427778"},{"id":"1609","province_id":"16","name":"KABUPATEN OGAN KOMERING ULU TIMUR","lat":"-3.8567934","lng":"104.7520939"},{"id":"1601","province_id":"16","name":"KABUPATEN OGAN KOMERING ULU","lat":"-4.0283486","lng":"104.0072348"},{"id":"1673","province_id":"16","name":"KOTA PAGAR ALAM","lat":"-4.03767","lng":"103.265297"},{"id":"1608","province_id":"16","name":"KABUPATEN OGAN KOMERING ULU SELATAN","lat":"-4.6681951","lng":"104.0072348"}]