[{"nid":"1460","parent_nid":"21","name":"Kabupaten Bintan","serial":"2101","type":"2","lat":"1.0619173","lng":"104.5189214","status":"1"},{"nid":"1459","parent_nid":"21","name":"Kabupaten Karimun","serial":"2102","type":"2","lat":"1.05","lng":"103.3666667","status":"1"},{"nid":"1461","parent_nid":"21","name":"Kabupaten Natuna","serial":"2103","type":"2","lat":"3.9329945","lng":"108.1812242","status":"1"},{"nid":"1462","parent_nid":"21","name":"Kabupaten Lingga","serial":"2104","type":"2","lat":"-0.1627686","lng":"104.6354631","status":"1"},{"nid":"1765","parent_nid":"21","name":"Kabupaten Lingga","serial":"2104","type":"2","lat":"-0.1627686","lng":"104.6354631","status":"1"},{"nid":"1766","parent_nid":"21","name":" Kabupaten Anambas","serial":"2105","type":"2","lat":"3.1055459","lng":"105.6537231","status":"1"},{"nid":"1463","parent_nid":"21","name":"Kota Batam","serial":"2171","type":"2","lat":"1.0456264","lng":"104.0304535","status":"1"},{"nid":"1464","parent_nid":"21","name":"Kota Tanjung Pinang","serial":"2172","type":"2","lat":"0.9179205","lng":"104.446464","status":"1"}]