[{"nid":"1532","parent_nid":"34","name":"Kabupaten Kulon Progo","serial":"3401","type":"2","lat":"-7.8266798","lng":"110.1640846","status":"1"},{"nid":"1533","parent_nid":"34","name":"Kabupaten Bantul","serial":"3402","type":"2","lat":"-7.8846111","lng":"110.3341111","status":"1"},{"nid":"1534","parent_nid":"34","name":"Kabupaten Gunung Kidul","serial":"3403","type":"2","lat":"-8.0305091","lng":"110.6168921","status":"1"},{"nid":"1767","parent_nid":"34","name":"Kabupaten Sleman","serial":"3404","type":"2","lat":"-7.716165","lng":"110.335403","status":"1"},{"nid":"1536","parent_nid":"34","name":"Kota Yogyakarta","serial":"3471","type":"2","lat":"-7.797224","lng":"110.368797","status":"1"}]