[{"id":"5208","province_id":"52","name":"KABUPATEN LOMBOK UTARA","lat":"-8.3739076","lng":"116.2777073"},{"id":"5206","province_id":"52","name":"KABUPATEN BIMA","lat":"-8.460566","lng":"118.727402"},{"id":"5272","province_id":"52","name":"KOTA BIMA","lat":"-8.460566","lng":"118.727402"},{"id":"5205","province_id":"52","name":"KABUPATEN DOMPU","lat":"-8.4966318","lng":"118.4747173"},{"id":"5203","province_id":"52","name":"KABUPATEN LOMBOK TIMUR","lat":"-8.5134471","lng":"116.5609857"},{"id":"5271","province_id":"52","name":"KOTA MATARAM","lat":"-8.5833333","lng":"116.1166667"},{"id":"5201","province_id":"52","name":"KABUPATEN LOMBOK BARAT","lat":"-8.6464599","lng":"116.1123078"},{"id":"5204","province_id":"52","name":"KABUPATEN SUMBAWA","lat":"-8.6529334","lng":"117.3616476"},{"id":"5202","province_id":"52","name":"KABUPATEN LOMBOK TENGAH","lat":"-8.694623","lng":"116.2777073"},{"id":"5207","province_id":"52","name":"KABUPATEN SUMBAWA BARAT","lat":"-8.9292907","lng":"116.8910342"}]