[{"nid":"1553","parent_nid":"52","name":"Kabupaten Lombok Barat","serial":"5201","type":"2","lat":"-8.6464599","lng":"116.1123078","status":"1"},{"nid":"1554","parent_nid":"52","name":"Kabupaten Lombok Tengah","serial":"5202","type":"2","lat":"-8.694623","lng":"116.2777073","status":"1"},{"nid":"1555","parent_nid":"52","name":"Kabupaten Lombok Timur","serial":"5203","type":"2","lat":"-8.5134471","lng":"116.5609857","status":"1"},{"nid":"1556","parent_nid":"52","name":"Kabupaten Sumbawa","serial":"5204","type":"2","lat":"-8.6529334","lng":"117.3616476","status":"1"},{"nid":"1557","parent_nid":"52","name":"Kabupaten Dompu","serial":"5205","type":"2","lat":"-8.4966318","lng":"118.4747173","status":"1"},{"nid":"1558","parent_nid":"52","name":"Kabupaten Bima","serial":"5206","type":"2","lat":"-8.460566","lng":"118.727402","status":"1"},{"nid":"1559","parent_nid":"52","name":"Kabupaten Sumbawa Barat","serial":"5207","type":"2","lat":"-8.9292907","lng":"116.8910342","status":"1"},{"nid":"1769","parent_nid":"52","name":"Kabupaten Lombok Utara","serial":"5208","type":"2","lat":"-8.3739076","lng":"116.2777073","status":"1"},{"nid":"1560","parent_nid":"52","name":"Kota Mataram","serial":"5271","type":"2","lat":"-8.5833333","lng":"116.1166667","status":"1"},{"nid":"1561","parent_nid":"52","name":"Kota Bima","serial":"5272","type":"2","lat":"-8.460566","lng":"118.727402","status":"1"}]