[{"nid":"1637","parent_nid":"71","name":"Kabupaten Bolaang Mongondow","serial":"7101","type":"2","lat":"0.6870994","lng":"124.0641419","status":"1"},{"nid":"1638","parent_nid":"71","name":"Kabupaten Minahasa","serial":"7102","type":"2","lat":"1","lng":"124.5833333","status":"1"},{"nid":"1639","parent_nid":"71","name":"Kabupaten Kepulauan Sangihe","serial":"7103","type":"2","lat":"3.5303212","lng":"125.5438967","status":"1"},{"nid":"1640","parent_nid":"71","name":"Kabupaten Kepulauan Talaud","serial":"7104","type":"2","lat":"4.092","lng":"126.768","status":"1"},{"nid":"1641","parent_nid":"71","name":"Kabupaten Minahasa Selatan","serial":"7105","type":"2","lat":"1.0946773","lng":"124.4641848","status":"1"},{"nid":"1642","parent_nid":"71","name":"Kabupaten Minahasa Utara","serial":"7106","type":"2","lat":"1.5327973","lng":"124.994751","status":"1"},{"nid":"1645","parent_nid":"71","name":"Kabupaten Minahasa Tenggara","serial":"7107","type":"2","lat":"1.0278551","lng":"124.7298765","status":"1"},{"nid":"1643","parent_nid":"71","name":"Kabupaten Bolaang Mongondow Utara","serial":"7108","type":"2","lat":"0.818691","lng":"123.5280072","status":"1"},{"nid":"1644","parent_nid":"71","name":"Kabupaten Siau Tagulandang Biaro","serial":"7109","type":"2","lat":"2.345964","lng":"125.4124355","status":"1"},{"nid":"1771","parent_nid":"71","name":"Kabupaten Bolang Mongondow Timur","serial":"7110","type":"2","lat":"0.7152651","lng":"124.4641848","status":"1"},{"nid":"1772","parent_nid":"71","name":"Kabupaten Bolang Mongondow Selatan","serial":"7111","type":"2","lat":"0.4053215","lng":"123.8411288","status":"1"},{"nid":"1646","parent_nid":"71","name":"Kota Manado","serial":"7171","type":"2","lat":"1.4917014","lng":"124.842843","status":"1"},{"nid":"1647","parent_nid":"71","name":"Kota Bitung","serial":"7172","type":"2","lat":"1.4553529","lng":"125.204697","status":"1"},{"nid":"1648","parent_nid":"71","name":"Kota Tomohon","serial":"7173","type":"2","lat":"1.3234131","lng":"124.8384504","status":"1"},{"nid":"1649","parent_nid":"71","name":"Kota Kotamobagu","serial":"7174","type":"2","lat":"0.7333333","lng":"124.3166667","status":"1"}]