[{"id":"7205","province_id":"72","name":"KABUPATEN DONGGALA","lat":"-0.4233155","lng":"119.8352303"},{"id":"7208","province_id":"72","name":"KABUPATEN PARIGI MOUTONG","lat":"0.5817607","lng":"120.8039474"},{"id":"7206","province_id":"72","name":"KABUPATEN TOLI-TOLI","lat":"0.8768231","lng":"120.7579834"},{"id":"7271","province_id":"72","name":"KOTA PALU","lat":"-0.898583","lng":"119.850601"},{"id":"7207","province_id":"72","name":"KABUPATEN BUOL","lat":"0.9695452","lng":"121.3541631"},{"id":"7209","province_id":"72","name":"KABUPATEN TOJO UNA-UNA","lat":"-1.098757","lng":"121.5370003"},{"id":"7210","province_id":"72","name":"KABUPATEN SIGI","lat":"-1.3834127","lng":"120.0665236"},{"id":"7204","province_id":"72","name":"KABUPATEN POSO","lat":"-1.391922","lng":"120.766998"},{"id":"7201","province_id":"72","name":"KABUPATEN BANGGAI KEPULAUAN","lat":"-1.6408137","lng":"123.5504076"},{"id":"7202","province_id":"72","name":"KABUPATEN BANGGAI","lat":"-1.6408137","lng":"123.5504076"},{"id":"7203","province_id":"72","name":"KABUPATEN MOROWALI","lat":"-2.3003072","lng":"121.5370003"}]