[{"nid":"1651","parent_nid":"72","name":"Kabupaten Banggai","serial":"7201","type":"2","lat":"-1.6408137","lng":"123.5504076","status":"1"},{"nid":"1653","parent_nid":"72","name":"Kabupaten Poso","serial":"7202","type":"2","lat":"-1.391922","lng":"120.766998","status":"1"},{"nid":"1654","parent_nid":"72","name":"Kabupaten Donggala","serial":"7203","type":"2","lat":"-0.4233155","lng":"119.8352303","status":"1"},{"nid":"1655","parent_nid":"72","name":"Kabupaten Toli-Toli","serial":"7204","type":"2","lat":"0.8768231","lng":"120.7579834","status":"1"},{"nid":"1656","parent_nid":"72","name":"Kabupaten Buol","serial":"7205","type":"2","lat":"0.9695452","lng":"121.3541631","status":"1"},{"nid":"1652","parent_nid":"72","name":"Kabupaten Morowali","serial":"7206","type":"2","lat":"-2.3003072","lng":"121.5370003","status":"1"},{"nid":"1650","parent_nid":"72","name":"Kabupaten Banggai Kepulauan","serial":"7207","type":"2","lat":"-1.6408137","lng":"123.5504076","status":"1"},{"nid":"1657","parent_nid":"72","name":"Kabupaten Parigi Moutong","serial":"7208","type":"2","lat":"0.5817607","lng":"120.8039474","status":"1"},{"nid":"1658","parent_nid":"72","name":"Kabupaten Tojo Una-Una","serial":"7209","type":"2","lat":"-1.098757","lng":"121.5370003","status":"1"},{"nid":"1773","parent_nid":"72","name":"Kabupaten Sigi","serial":"7210","type":"2","lat":"-1.3834127","lng":"120.0665236","status":"1"},{"nid":"1659","parent_nid":"72","name":"Kota Palu","serial":"7271","type":"2","lat":"-0.898583","lng":"119.850601","status":"1"}]