[{"nid":"1686","parent_nid":"74","name":"Kabupaten Kolaka","serial":"7401","type":"2","lat":"-4.049665","lng":"121.593803","status":"1"},{"nid":"1685","parent_nid":"74","name":"Kabupaten Konawe","serial":"7402","type":"2","lat":"-3.9380432","lng":"122.0837445","status":"1"},{"nid":"1684","parent_nid":"74","name":"Kabupaten Muna","serial":"7403","type":"2","lat":"-4.901629","lng":"122.6277455","status":"1"},{"nid":"1683","parent_nid":"74","name":"Kabupaten Buton","serial":"7404","type":"2","lat":"-5.3096355","lng":"122.9888319","status":"1"},{"nid":"1687","parent_nid":"74","name":"Kabupaten Konawe Selatan","serial":"7405","type":"2","lat":"-4.2027915","lng":"122.4467238","status":"1"},{"nid":"1688","parent_nid":"74","name":"Kabupaten Bombana","serial":"7406","type":"2","lat":"-4.6543462","lng":"121.9017954","status":"1"},{"nid":"1689","parent_nid":"74","name":"Kabupaten Wakatobi","serial":"7407","type":"2","lat":"-5.3264442","lng":"123.5951925","status":"1"},{"nid":"1690","parent_nid":"74","name":"Kabupaten Kolaka Utara","serial":"7408","type":"2","lat":"-3.1347227","lng":"121.1710389","status":"1"},{"nid":"1692","parent_nid":"74","name":"Kabupaten Konawe Utara","serial":"7409","type":"2","lat":"-3.3803291","lng":"122.0837445","status":"1"},{"nid":"1691","parent_nid":"74","name":"Kabupaten Buton Utara","serial":"7410","type":"2","lat":"-4.7023424","lng":"123.0338767","status":"1"},{"nid":"1693","parent_nid":"74","name":"Kota Kendari","serial":"7471","type":"2","lat":"-3.972201","lng":"122.5149028","status":"1"},{"nid":"1694","parent_nid":"74","name":"Kota Bau-Bau","serial":"7472","type":"2","lat":"-5.46667","lng":"122.633","status":"1"}]