[{"id":"7408","province_id":"74","name":"KABUPATEN KOLAKA UTARA","lat":"-3.1347227","lng":"121.1710389"},{"id":"7410","province_id":"74","name":"KABUPATEN KONAWE UTARA","lat":"-3.3803291","lng":"122.0837445"},{"id":"7403","province_id":"74","name":"KABUPATEN KONAWE","lat":"-3.9380432","lng":"122.0837445"},{"id":"7471","province_id":"74","name":"KOTA KENDARI","lat":"-3.972201","lng":"122.5149028"},{"id":"7404","province_id":"74","name":"KABUPATEN KOLAKA","lat":"-4.049665","lng":"121.593803"},{"id":"7405","province_id":"74","name":"KABUPATEN KONAWE SELATAN","lat":"-4.2027915","lng":"122.4467238"},{"id":"7406","province_id":"74","name":"KABUPATEN BOMBANA","lat":"-4.6543462","lng":"121.9017954"},{"id":"7409","province_id":"74","name":"KABUPATEN BUTON UTARA","lat":"-4.7023424","lng":"123.0338767"},{"id":"7402","province_id":"74","name":"KABUPATEN MUNA","lat":"-4.901629","lng":"122.6277455"},{"id":"7401","province_id":"74","name":"KABUPATEN BUTON","lat":"-5.3096355","lng":"122.9888319"},{"id":"7407","province_id":"74","name":"KABUPATEN WAKATOBI","lat":"-5.3264442","lng":"123.5951925"}]