[{"nid":"1705","parent_nid":"76","name":"Kabupaten Mamuju Utara","serial":"7601","type":"2","lat":"-1.5264542","lng":"119.5107708","status":"1"},{"nid":"1704","parent_nid":"76","name":"Kabupaten Mamuju","serial":"7602","type":"2","lat":"-2.7293364","lng":"118.9295737","status":"1"},{"nid":"1703","parent_nid":"76","name":"Kabupaten Mamasa","serial":"7603","type":"2","lat":"-2.960135","lng":"119.368202","status":"1"},{"nid":"1702","parent_nid":"76","name":"Kabupaten Polewali Mandar","serial":"7604","type":"2","lat":"-3.3419323","lng":"119.1390642","status":"1"},{"nid":"1701","parent_nid":"76","name":"Kabupaten Majene","serial":"7605","type":"2","lat":"-3.0297251","lng":"118.9062794","status":"1"}]