[{"id":"7605","province_id":"76","name":"KABUPATEN MAMUJU UTARA","lat":"-1.5264542","lng":"119.5107708"},{"id":"7604","province_id":"76","name":"KABUPATEN MAMUJU","lat":"-2.7293364","lng":"118.9295737"},{"id":"7603","province_id":"76","name":"KABUPATEN MAMASA","lat":"-2.960135","lng":"119.368202"},{"id":"7601","province_id":"76","name":"KABUPATEN MAJENE","lat":"-3.0297251","lng":"118.9062794"},{"id":"7602","province_id":"76","name":"KABUPATEN POLEWALI MANDAR","lat":"-3.3419323","lng":"119.1390642"}]